[{"name": "The Parlor", "image": "http://www.theparlorsf.com/media/uploads/interior_pics/front_door_homepage_horizontal.jpg", "long": "-122.4194274", "hours": "4:00pm-8:00am", "phone": "(415) 775-5110", "address": "2801 Leavenworth Street, San Francisco, CA 94133, USA", "lat": "37.8073431", "type": "Lounge Bar And Night Club"}, {"name": "540 Club", "image": "http://thenoisebeneaththeapple.com/wp-content/uploads/2012/08/540-club.jpg", "long": "-122.4651637", "hours": "12:00pm-2:00am", "phone": "(415) 752-7276", "address": "540 Clement Street, San Francisco, CA 94118, USA", "lat": "37.7830929", "type": "Bar"}, {"name": "The 500 Club", "image": "http://500clubsf.com/yahoo_site_admin/assets/images/5sign.78232104_std.jpg", "long": "-122.4241888", "hours": "11:00 am - 2:00 am", "phone": "(415) 861-2500", "address": "500 Guerrero Street, San Francisco, CA 94110, USA", "lat": "37.7630363", "type": "Bar"}, {"name": "Vertigo", "image": "https://cbks3.google.com/cbk?output=thumbnail&cb_client=maps_sv&thumb=2&panoid=YQxqYBXmPZaYHAK_HWg49w&yaw=334.6064863861733&w=333&h=79", "long": "-122.419814", "hours": "3:00 pm - 2:00 am", "phone": "(415) 674-1278", "address": "1160 Polk Street, San Francisco, CA 94109, USA", "lat": "37.7875296", "type": "Bar"}, {"name": "Latin American Club", "image": "https://s-media-cache-ak0.pinimg.com/originals/7d/9d/1e/7d9d1ec887289c49d1c536340c33b4e9.jpg", "long": "-122.4206599", "hours": "5:00 pm---2:00 am", "phone": "(415) 647-2732", "address": "3286 22nd Street, San Francisco, CA 94110, USA", "lat": "37.7553415", "type": "Bar"}, {"name": "San Francisco Badlands", "image": "http://s3-media2.fl.yelpcdn.com/bphoto/rCjnajLYPAQfsC-4SZ5LBA/l.jpg", "long": "-122.4354615", "hours": "-3:00 pm - 2:00 am", "phone": "(415) 626-9320", "address": "4121 18th Street, San Francisco, CA 94114, USA", "lat": "37.7607493", "type": "Night Club"}, {"name": "F8", "image": "https://lh3.googleusercontent.com/-v2LRG0dy-gE/VNVl8sPHTPI/AAAAAAAAABE/etCksJeJYnE/s242-k-no/photo.jpg", "long": "-122.4099488", "hours": "5:00 pm - 3:00 am", "phone": "(415) 857-1192", "address": "1192 Folsom Street, San Francisco, CA 94103, USA", "lat": "37.775307", "type": "Lounge"}, {"name": "Press Club", "image": "https://geo0.ggpht.com/cbk?output=tile&cb_client=maps_sv.gps&panoid=uRz9MR8A2rYAAAQY7sOC2A&x=0&y=0&zoom=5", "long": "-122.4045719", "hours": "2:00 pm - 12:00 am", "phone": "(415) 744-5000", "address": "20 Yerba Buena Lane, San Francisco, CA 94130, USA", "lat": "37.7859785", "type": "Wine Bar"}, {"name": "MatrixFillmore", "image": "http://www.matrixfillmore.com/images/home_image_3.jpg", "long": "-122.435665", "hours": "10pm-2am", "phone": "(415) 563-4180", "address": "3138 Fillmore Street, San Francisco, CA 94123, USA", "lat": "37.7986879", "type": "Night Club"}, {"name": "Make-Out Room", "image": "http://danivox.com/wp-content/uploads/2012/12/DaniVox_MOR_8.jpg", "long": "-122.4193588", "hours": "6pm-2am", "phone": "(415) 647-2888", "address": "3225 22nd Street, San Francisco, CA 94110, USA", "lat": "37.7552647", "type": "Night Club"}, {"name": "1015 Folsom", "image": "http://guestlistspy.com/wp-content/uploads/2012/07/1015-folsom-guestlist.jpg", "long": "-122.4057628", "hours": " 10:00 pm - 3:00 am", "phone": "(415) 431-1200", "address": "1015 Folsom Street, San Francisco, CA 94103, USA", "lat": "37.7781009", "type": "Night Club"}, {"name": "Ruby Skye", "image": "http://www.rubyskye.com/_images/RubySkye.jpg", "long": "-122.4098052", "hours": "9pm-2am", "phone": "(415) 693-0777", "address": "420 Mason Street, San Francisco, CA 94102, USA", "lat": "37.7875918", "type": "Night Club"}, {"name": "Amnesia", "image": "http://uplup.com/music_spot/amnesia-san-francisco/additional_images/Amnesia%20bar.jpg", "long": "-122.4210613", "hours": "5:00 pm - 2:00 am", "phone": "(415) 970-0012", "address": "853 Valencia Street, San Francisco, CA 94110, USA", "lat": "37.759309", "type": "Bar"}, {"name": "The Endup", "image": "http://www.theendup.com/club/wp-content/uploads/galleryimages/b7g76jET95e1icT8.jpg", "long": "-122.4037707", "hours": " \nFriday 9:30 pm - 8:00 am\nSaturday 10:00 pm - 8:00 am\nSunday 1:00 - 9:00 pm \n", "phone": "(415) 646-0999", "address": "401 6th Street, San Francisco, CA 94103, USA", "lat": "37.7772436", "type": "Bar"}, {"name": "OMG!", "image": "https://evbdn.eventbrite.com/s3-s3/eventlogos/32513655/image2.png", "long": "-122.4093351", "hours": "7:00 pm - 2:00 am ", "phone": "(415) 896-6473", "address": "43 6th Street, San Francisco, CA 94103, USA", "lat": "37.7818047", "type": "Night Club"}, {"name": "DNA Lounge", "image": "https://www.dnalounge.com/booking/005.jpg", "long": "-122.412719", "hours": "Open 24 hours", "phone": "(415) 626-1409", "address": "375 11th Street, San Francisco, CA 94103, USA", "lat": "37.7710189", "type": "Night Club"}, {"name": "Infusion Lounge", "image": "http://guestlistamerica.com/wp-content/uploads/2013/02/main-lounge.jpg", "long": "-122.4085226", "hours": "6:00 pm - 2:00 am", "phone": "(415) 421-8700", "address": "124 Ellis Street, San Francisco, CA 94102, USA", "lat": "37.7856002", "type": "Lounge"}, {"name": "Temple Nightclub", "image": "http://photos3.meetupstatic.com/photos/event/a/4/0/8/600_430061992.jpeg", "long": "-122.3972358", "hours": "10:00 pm - 4:00 am", "phone": "(415) 978-9942", "address": "540 Howard Street, San Francisco, CA 94105, USA", "lat": "37.7879165", "type": "Night Club"}, {"name": "Harlot", "image": "http://cdn.djoybeat.com/wp-content/uploads/2012/12/harlot-sf3.jpg", "long": "-122.3982112", "hours": "9:00 pm - 2:00 am", "phone": "(415) 777-1077", "address": "46 Minna Street, San Francisco, CA 94105, USA", "lat": "37.7885627", "type": "Night Club"}, {"name": "Lookout", "image": "https://geo0.ggpht.com/cbk?output=tile&cb_client=maps_sv.gps&panoid=_bLCsw6PBLIAAAQfCRPoLQ&x=0&y=0&zoom=5", "long": "-122.4334227", "hours": "3:30 pm - 2:00 am", "phone": "(415) 431-0306", "address": "3600 16th Street, San Francisco, CA 94114, USA", "lat": "37.7643965", "type": "Gay Bar"}, {"name": "Philosophers Club", "image": "https://lh3.googleusercontent.com/-8BbNqkpbUCE/Ug0zsuiPk6I/AAAAAAAALMM/VrQeyHnRlBk/s285-k-no/2013-08-15", "long": "-122.4654431", "hours": "10:00 am - 2:00 am", "phone": "(415) 753-0599", "address": "824 Ulloa Street, San Francisco, CA 94127, USA", "lat": "37.7408498", "type": "Bar"}, {"name": "AsiaSF", "image": "http://asiasf.com/wp-content/uploads/2013/08/aliyah-amber-nya.jpg", "long": "-122.4127649", "hours": "7:15 pm - 2:00 am", "phone": "(415) 255-2742", "address": "201 9th Street, San Francisco, CA 94103, USA", "lat": "37.7750644", "type": "Asian Fusion Restaurant / Nigh Club"}, {"name": "Delirium", "image": "https://lh6.googleusercontent.com/-vl37m4n-8xM/Uae7wVLdyUI/AAAAAAAAE8M/4pJRXEK7LyY/s285-k-no/2013-05-30", "long": "-122.4228718", "hours": "-2:00 pm - 2:00 am", "phone": "(415) 552-5525", "address": "3139 16th Street, San Francisco, CA 94103, USA", "lat": "37.7648463", "type": "Cocktail Bar"}, {"name": "23 Club", "image": "https://lh6.googleusercontent.com/-gVSVS9fv0TQ/VMiSwcGk6PI/AAAAAAAAAAc/CQjSSlNB3CE/s286-k-no/photo.jpg", "long": "-122.4024009", "hours": "3pm - 2 am", "phone": "(415) 467-7717", "address": "23 Visitacion Avenue, Brisbane, CA 94005, USA", "lat": "37.6841542", "type": "Bar"}]